frame,t,centroid_x,centroid_y,depth_m,norm_gx,norm_gy,norm_gz,wrist_yaw,wrist_pitch,wrist_roll,curl_thumb,curl_index,curl_middle,curl_ring,curl_pinky,gripper_x_act,gripper_y_act,gripper_z_act,wrist_abduction_yaw_act,wrist_flex_pitch_act,wrist_roll_act,thumb_base_act,thumb_ip_act,thumb_mcp_act,thumb_roll_act,index_abd_act,index_dip_act,index_mcp_act,index_pip_act,middle_dip_act,middle_mcp_act,middle_pip_act,ring_abd_act,ring_dip_act,ring_mcp_act,ring_pip_act,pinky_abd_act,pinky_dip_act,pinky_mcp_act
0,3.1534128189086914,235.0,166.0,0.7160000205039978,-0.2644757330417633,0.12615391612052917,0.3068893551826477,0.4132537841796875,0.7514928579330444,0.15961602330207825,0.05642716959118843,0.020309437066316605,0.02882448025047779,0.04170539975166321,0.0321006253361702,-0.2644757330417633,0.12615391612052917,0.3068893551826477,-0.1734924614429474,0.5029857754707336,-0.6807679533958435,-0.8871456384658813,-0.8871456384658813,-0.8871456384658813,-0.8871456384658813,-0.959381103515625,-0.959381103515625,-0.959381103515625,-0.959381103515625,-0.9423510432243347,-0.9423510432243347,-0.9423510432243347,-0.9165892004966736,-0.9165892004966736,-0.9165892004966736,-0.9165892004966736,-0.9357987642288208,-0.9357987642288208,-0.9357987642288208
1,3.184246063232422,236.0,166.0,0.718000054359436,-0.26134586334228516,0.13230785727500916,0.3068893551826477,0.41891276836395264,0.7507679462432861,0.15148770809173584,0.06106150150299072,0.020072687417268753,0.028793202713131905,0.04447405785322189,0.0338887944817543,-0.26134586334228516,0.13230785727500916,0.3068893551826477,-0.16217447817325592,0.5015358924865723,-0.6970245838165283,-0.8778769969940186,-0.8778769969940186,-0.8778769969940186,-0.8778769969940186,-0.9598546028137207,-0.9598546028137207,-0.9598546028137207,-0.9598546028137207,-0.9424135684967041,-0.9424135684967041,-0.9424135684967041,-0.911051869392395,-0.911051869392395,-0.911051869392395,-0.911051869392395,-0.9322224259376526,-0.9322224259376526,-0.9322224259376526
2,3.2155380249023438,235.0,166.0,0.7150000333786011,-0.2644757330417633,0.12307702749967575,0.3068893551826477,0.41506171226501465,0.7488619685173035,0.156254380941391,0.0614803284406662,0.0194261334836483,0.030434373766183853,0.04595693573355675,0.035947270691394806,-0.2644757330417633,0.12307702749967575,0.3068893551826477,-0.1698765903711319,0.4977239966392517,-0.687491238117218,-0.87703937292099,-0.87703937292099,-0.87703937292099,-0.87703937292099,-0.9611477255821228,-0.9611477255821228,-0.9611477255821228,-0.9611477255821228,-0.9391312599182129,-0.9391312599182129,-0.9391312599182129,-0.9080861210823059,-0.9080861210823059,-0.9080861210823059,-0.9080861210823059,-0.9281054735183716,-0.9281054735183716,-0.9281054735183716
3,3.246260404586792,236.0,166.0,0.718000054359436,-0.26134586334228516,0.13230785727500916,0.3068893551826477,0.4149409532546997,0.7497424483299255,0.15574020147323608,0.0669194757938385,0.022093895822763443,0.03246156498789787,0.04330473765730858,0.030535561963915825,-0.26134586334228516,0.13230785727500916,0.3068893551826477,-0.17011809349060059,0.49948495626449585,-0.6885195970535278,-0.866161048412323,-0.866161048412323,-0.866161048412323,-0.866161048412323,-0.9558122158050537,-0.9558122158050537,-0.9558122158050537,-0.9558122158050537,-0.935076892375946,-0.935076892375946,-0.935076892375946,-0.9133905172348022,-0.9133905172348022,-0.9133905172348022,-0.9133905172348022,-0.9389289021492004,-0.9389289021492004,-0.9389289021492004
4,3.2782704830169678,235.0,166.0,0.7150000333786011,-0.2644757330417633,0.12307702749967575,0.3068893551826477,0.4180688261985779,0.7496689558029175,0.15622569620609283,0.06497198343276978,0.021119343116879463,0.03149143606424332,0.04483187571167946,0.03690958395600319,-0.2644757330417633,0.12307702749967575,0.3068893551826477,-0.16386236250400543,0.4993378520011902,-0.6875486373901367,-0.8700560331344604,-0.8700560331344604,-0.8700560331344604,-0.8700560331344604,-0.957761287689209,-0.957761287689209,-0.957761287689209,-0.957761287689209,-0.9370171427726746,-0.9370171427726746,-0.9370171427726746,-0.9103362560272217,-0.9103362560272217,-0.9103362560272217,-0.9103362560272217,-0.9261808395385742,-0.9261808395385742,-0.9261808395385742
5,3.3094043731689453,235.0,166.0,0.7170000076293945,-0.2644757330417633,0.129230797290802,0.3068893551826477,0.41857224702835083,0.750735878944397,0.15221579372882843,0.054068874567747116,0.022952372208237648,0.027073495090007782,0.037495967000722885,0.03247181326150894,-0.2644757330417633,0.129230797290802,0.3068893551826477,-0.16285553574562073,0.5014718174934387,-0.6955684423446655,-0.8918622732162476,-0.8918622732162476,-0.8918622732162476,-0.8918622732162476,-0.9540952444076538,-0.9540952444076538,-0.9540952444076538,-0.9540952444076538,-0.9458529949188232,-0.9458529949188232,-0.9458529949188232,-0.9250080585479736,-0.9250080585479736,-0.9250080585479736,-0.9250080585479736,-0.9350563883781433,-0.9350563883781433,-0.9350563883781433
6,3.3412866592407227,235.0,166.0,0.7170000076293945,-0.2644757330417633,0.129230797290802,0.3068893551826477,0.4211094081401825,0.7483793497085571,0.15433932840824127,0.06392375379800797,0.02027459256350994,0.030825955793261528,0.04316280037164688,0.03461451083421707,-0.2644757330417633,0.129230797290802,0.3068893551826477,-0.15778115391731262,0.49675872921943665,-0.6913213729858398,-0.8721525073051453,-0.8721525073051453,-0.8721525073051453,-0.8721525073051453,-0.9594508409500122,-0.9594508409500122,-0.9594508409500122,-0.9594508409500122,-0.938348114490509,-0.938348114490509,-0.938348114490509,-0.9136744141578674,-0.9136744141578674,-0.9136744141578674,-0.9136744141578674,-0.930770993232727,-0.930770993232727,-0.930770993232727
7,3.388296604156494,235.0,166.0,0.718000054359436,-0.2644757330417633,0.13230785727500916,0.3068893551826477,0.41710424423217773,0.7492396235466003,0.15688860416412354,0.05707249790430069,0.02182748354971409,0.031211286783218384,0.04183531552553177,0.03198470547795296,-0.2644757330417633,0.13230785727500916,0.3068893551826477,-0.16579154133796692,0.49847930669784546,-0.6862227916717529,-0.8858550190925598,-0.8858550190925598,-0.8858550190925598,-0.8858550190925598,-0.9563450217247009,-0.9563450217247009,-0.9563450217247009,-0.9563450217247009,-0.9375774264335632,-0.9375774264335632,-0.9375774264335632,-0.9163293838500977,-0.9163293838500977,-0.9163293838500977,-0.9163293838500977,-0.9360305666923523,-0.9360305666923523,-0.9360305666923523
8,3.4203035831451416,235.0,165.0,0.7170000076293945,-0.2644757330417633,0.129230797290802,0.3110647201538086,0.4189119040966034,0.7499526143074036,0.15418116748332977,0.05778965353965759,0.022497817873954773,0.02977581135928631,0.04241390526294708,0.03308641538023949,-0.2644757330417633,0.129230797290802,0.3110647201538086,-0.16217617690563202,0.4999052584171295,-0.6916376352310181,-0.8844206929206848,-0.8844206929206848,-0.8844206929206848,-0.8844206929206848,-0.9550043940544128,-0.9550043940544128,-0.9550043940544128,-0.9550043940544128,-0.9404484033584595,-0.9404484033584595,-0.9404484033584595,-0.9151721596717834,-0.9151721596717834,-0.9151721596717834,-0.9151721596717834,-0.9338271617889404,-0.9338271617889404,-0.9338271617889404
9,3.4513132572174072,235.0,166.0,0.718000054359436,-0.2644757330417633,0.13230785727500916,0.3068893551826477,0.4168844223022461,0.7498787045478821,0.1553172767162323,0.0635233223438263,0.022506682202219963,0.032222699373960495,0.03975928947329521,0.030485207214951515,-0.2644757330417633,0.13230785727500916,0.3068893551826477,-0.166231170296669,0.4997573494911194,-0.6893654465675354,-0.8729533553123474,-0.8729533553123474,-0.8729533553123474,-0.8729533553123474,-0.9549866318702698,-0.9549866318702698,-0.9549866318702698,-0.9549866318702698,-0.9355546236038208,-0.9355546236038208,-0.9355546236038208,-0.9204814434051514,-0.9204814434051514,-0.9204814434051514,-0.9204814434051514,-0.9390295743942261,-0.9390295743942261,-0.9390295743942261
10,3.48332142829895,235.0,166.0,0.718000054359436,-0.2644757330417633,0.13230785727500916,0.3068893551826477,0.4174706041812897,0.7498641610145569,0.1550041288137436,0.061171963810920715,0.02141347900032997,0.03000486269593239,0.043224647641181946,0.03497157245874405,-0.2644757330417633,0.13230785727500916,0.3068893551826477,-0.16505877673625946,0.49972835183143616,-0.6899917125701904,-0.877656102180481,-0.877656102180481,-0.877656102180481,-0.877656102180481,-0.9571730494499207,-0.9571730494499207,-0.9571730494499207,-0.9571730494499207,-0.9399902820587158,-0.9399902820587158,-0.9399902820587158,-0.9135506749153137,-0.9135506749153137,-0.9135506749153137,-0.9135506749153137,-0.9300568699836731,-0.9300568699836731,-0.9300568699836731
11,3.515488386154175,235.0,166.0,0.718000054359436,-0.2644757330417633,0.13230785727500916,0.3068893551826477,0.4168494939804077,0.7500063180923462,0.157230406999588,0.05429835617542267,0.023781707510352135,0.03474816307425499,0.04758458212018013,0.032766152173280716,-0.2644757330417633,0.13230785727500916,0.3068893551826477,-0.16630099713802338,0.5000125765800476,-0.685539186000824,-0.8914032578468323,-0.8914032578468323,-0.8914032578468323,-0.8914032578468323,-0.9524365663528442,-0.9524365663528442,-0.9524365663528442,-0.9524365663528442,-0.9305036664009094,-0.9305036664009094,-0.9305036664009094,-0.904830813407898,-0.904830813407898,-0.904830813407898,-0.904830813407898,-0.9344676733016968,-0.9344676733016968,-0.9344676733016968
12,3.54734206199646,235.0,166.0,0.7170000076293945,-0.2644757330417633,0.129230797290802,0.3068893551826477,0.41673383116722107,0.749354898929596,0.15540456771850586,0.06409681588411331,0.02009856328368187,0.029294604435563087,0.042413048446178436,0.03272717073559761,-0.2644757330417633,0.129230797290802,0.3068893551826477,-0.16653232276439667,0.4987097680568695,-0.6891908645629883,-0.8718063831329346,-0.8718063831329346,-0.8718063831329346,-0.8718063831329346,-0.9598028659820557,-0.9598028659820557,-0.9598028659820557,-0.9598028659820557,-0.9414107799530029,-0.9414107799530029,-0.9414107799530029,-0.9151738882064819,-0.9151738882064819,-0.9151738882064819,-0.9151738882064819,-0.934545636177063,-0.934545636177063,-0.934545636177063
13,3.5793492794036865,235.0,166.0,0.7170000076293945,-0.2644757330417633,0.129230797290802,0.3068893551826477,0.41884854435920715,0.7498760223388672,0.1565093994140625,0.05682141333818436,0.01974118873476982,0.02794676274061203,0.04213537648320198,0.03241344541311264,-0.2644757330417633,0.129230797290802,0.3068893551826477,-0.1623029112815857,0.4997519850730896,-0.686981201171875,-0.8863571882247925,-0.8863571882247925,-0.8863571882247925,-0.8863571882247925,-0.9605176448822021,-0.9605176448822021,-0.9605176448822021,-0.9605176448822021,-0.9441064596176147,-0.9441064596176147,-0.9441064596176147,-0.9157292246818542,-0.9157292246818542,-0.9157292246818542,-0.9157292246818542,-0.9351730942726135,-0.9351730942726135,-0.9351730942726135
14,3.6114423274993896,235.0,166.0,0.7160000205039978,-0.2644757330417633,0.12615391612052917,0.3068893551826477,0.41668471693992615,0.7505634427070618,0.1572037786245346,0.058613140136003494,0.019316326826810837,0.02899601124227047,0.04383118078112602,0.03353865072131157,-0.2644757330417633,0.12615391612052917,0.3068893551826477,-0.1666305959224701,0.5011268854141235,-0.6855924129486084,-0.8827736973762512,-0.8827736973762512,-0.8827736973762512,-0.8827736973762512,-0.9613673686981201,-0.9613673686981201,-0.9613673686981201,-0.9613673686981201,-0.9420079588890076,-0.9420079588890076,-0.9420079588890076,-0.9123376607894897,-0.9123376607894897,-0.9123376607894897,-0.9123376607894897,-0.9329227209091187,-0.9329227209091187,-0.9329227209091187
15,3.6584768295288086,235.0,166.0,0.7170000076293945,-0.2644757330417633,0.129230797290802,0.3068893551826477,0.4208381474018097,0.7508895993232727,0.15319383144378662,0.06226689741015434,0.020694993436336517,0.0300421305000782,0.04808603972196579,0.03316112235188484,-0.2644757330417633,0.129230797290802,0.3068893551826477,-0.1583237200975418,0.5017792582511902,-0.6936123371124268,-0.8754662275314331,-0.8754662275314331,-0.8754662275314331,-0.8754662275314331,-0.9586099982261658,-0.9586099982261658,-0.9586099982261658,-0.9586099982261658,-0.9399157166481018,-0.9399157166481018,-0.9399157166481018,-0.9038279056549072,-0.9038279056549072,-0.9038279056549072,-0.9038279056549072,-0.9336777329444885,-0.9336777329444885,-0.9336777329444885
16,3.68937349319458,235.0,166.0,0.7170000076293945,-0.2644757330417633,0.129230797290802,0.3068893551826477,0.419111043214798,0.7502977252006531,0.15517984330654144,0.06255827844142914,0.02068915218114853,0.029167363420128822,0.048730265349149704,0.031205277889966965,-0.2644757330417633,0.129230797290802,0.3068893551826477,-0.16177788376808167,0.5005954504013062,-0.6896402835845947,-0.8748834729194641,-0.8748834729194641,-0.8748834729194641,-0.8748834729194641,-0.9586216807365417,-0.9586216807365417,-0.9586216807365417,-0.9586216807365417,-0.9416652917861938,-0.9416652917861938,-0.9416652917861938,-0.9025394916534424,-0.9025394916534424,-0.9025394916534424,-0.9025394916534424,-0.9375894665718079,-0.9375894665718079,-0.9375894665718079
17,3.721381187438965,235.0,166.0,0.7170000076293945,-0.2644757330417633,0.129230797290802,0.3068893551826477,0.4173145294189453,0.7501993775367737,0.15393893420696259,0.06608337163925171,0.020321037620306015,0.029604904353618622,0.0497099831700325,0.032591573894023895,-0.2644757330417633,0.129230797290802,0.3068893551826477,-0.16537094116210938,0.5003987550735474,-0.6921221017837524,-0.8678332567214966,-0.8678332567214966,-0.8678332567214966,-0.8678332567214966,-0.9593579173088074,-0.9593579173088074,-0.9593579173088074,-0.9593579173088074,-0.9407901763916016,-0.9407901763916016,-0.9407901763916016,-0.9005800485610962,-0.9005800485610962,-0.9005800485610962,-0.9005800485610962,-0.934816837310791,-0.934816837310791,-0.934816837310791
18,3.7533891201019287,235.0,165.0,0.718000054359436,-0.2644757330417633,0.13230785727500916,0.3110647201538086,0.4219151437282562,0.748430073261261,0.1543186604976654,0.061892230063676834,0.02208787575364113,0.030412305146455765,0.04502419754862785,0.033527106046676636,-0.2644757330417633,0.13230785727500916,0.3110647201538086,-0.15616972744464874,0.4968601167201996,-0.6913626790046692,-0.8762155175209045,-0.8762155175209045,-0.8762155175209045,-0.8762155175209045,-0.9558242559432983,-0.9558242559432983,-0.9558242559432983,-0.9558242559432983,-0.9391753673553467,-0.9391753673553467,-0.9391753673553467,-0.9099516272544861,-0.9099516272544861,-0.9099516272544861,-0.9099516272544861,-0.9329457879066467,-0.9329457879066467,-0.9329457879066467
19,3.785400152206421,235.0,165.0,0.7170000076293945,-0.2644757330417633,0.129230797290802,0.3110647201538086,0.4184309244155884,0.7499894499778748,0.15425901114940643,0.06111074239015579,0.022559525445103645,0.0335945300757885,0.04320446029305458,0.031042024493217468,-0.2644757330417633,0.129230797290802,0.3110647201538086,-0.16313813626766205,0.4999789297580719,-0.6914819478988647,-0.8777785301208496,-0.8777785301208496,-0.8777785301208496,-0.8777785301208496,-0.954880952835083,-0.954880952835083,-0.954880952835083,-0.954880952835083,-0.9328109622001648,-0.9328109622001648,-0.9328109622001648,-0.9135910868644714,-0.9135910868644714,-0.9135910868644714,-0.9135910868644714,-0.9379159808158875,-0.9379159808158875,-0.9379159808158875
20,3.817502975463867,235.0,166.0,0.718000054359436,-0.2644757330417633,0.13230785727500916,0.3068893551826477,0.4189072549343109,0.7502149939537048,0.15299034118652344,0.062446147203445435,0.023215530440211296,0.03305952623486519,0.04556029289960861,0.031180066987872124,-0.2644757330417633,0.13230785727500916,0.3068893551826477,-0.16218547523021698,0.5004299283027649,-0.6940193176269531,-0.8751077055931091,-0.8751077055931091,-0.8751077055931091,-0.8751077055931091,-0.9535689353942871,-0.9535689353942871,-0.9535689353942871,-0.9535689353942871,-0.9338809251785278,-0.9338809251785278,-0.9338809251785278,-0.9088793992996216,-0.9088793992996216,-0.9088793992996216,-0.9088793992996216,-0.9376398921012878,-0.9376398921012878,-0.9376398921012878
21,3.849414348602295,235.0,166.0,0.718000054359436,-0.2644757330417633,0.13230785727500916,0.3068893551826477,0.4184721112251282,0.7487032413482666,0.15479038655757904,0.0675165206193924,0.02099132537841797,0.0289655439555645,0.041658174246549606,0.03475094959139824,-0.2644757330417633,0.13230785727500916,0.3068893551826477,-0.16305577754974365,0.497406542301178,-0.6904191970825195,-0.8649669289588928,-0.8649669289588928,-0.8649669289588928,-0.8649669289588928,-0.9580173492431641,-0.9580173492431641,-0.9580173492431641,-0.9580173492431641,-0.9420689344406128,-0.9420689344406128,-0.9420689344406128,-0.9166836738586426,-0.9166836738586426,-0.9166836738586426,-0.9166836738586426,-0.9304981231689453,-0.9304981231689453,-0.9304981231689453
22,3.896425485610962,235.0,166.0,0.7170000076293945,-0.2644757330417633,0.129230797290802,0.3068893551826477,0.4147060811519623,0.7511836886405945,0.15707069635391235,0.059697654098272324,0.02015051245689392,0.028602072969079018,0.04236789792776108,0.03320852294564247,-0.2644757330417633,0.129230797290802,0.3068893551826477,-0.17058782279491425,0.502367377281189,-0.6858586072921753,-0.8806046843528748,-0.8806046843528748,-0.8806046843528748,-0.8806046843528748,-0.9596989750862122,-0.9596989750862122,-0.9596989750862122,-0.9596989750862122,-0.9427958726882935,-0.9427958726882935,-0.9427958726882935,-0.9152641892433167,-0.9152641892433167,-0.9152641892433167,-0.9152641892433167,-0.9335829615592957,-0.9335829615592957,-0.9335829615592957
23,3.928433418273926,235.0,166.0,0.7170000076293945,-0.2644757330417633,0.129230797290802,0.3068893551826477,0.4174712300300598,0.7490875124931335,0.15751631557941437,0.06474292278289795,0.01964944787323475,0.02764546312391758,0.04009897634387016,0.03127150237560272,-0.2644757330417633,0.129230797290802,0.3068893551826477,-0.16505751013755798,0.4981749951839447,-0.6849673986434937,-0.8705141544342041,-0.8705141544342041,-0.8705141544342041,-0.8705141544342041,-0.9607011079788208,-0.9607011079788208,-0.9607011079788208,-0.9607011079788208,-0.944709062576294,-0.944709062576294,-0.944709062576294,-0.9198020696640015,-0.9198020696640015,-0.9198020696640015,-0.9198020696640015,-0.9374570250511169,-0.9374570250511169,-0.9374570250511169
24,3.9606311321258545,235.0,166.0,0.718000054359436,-0.2644757330417633,0.13230785727500916,0.3068893551826477,0.4171971380710602,0.7494934797286987,0.15511442720890045,0.06685680896043777,0.023251693695783615,0.031769126653671265,0.04572492837905884,0.031833041459321976,-0.2644757330417633,0.13230785727500916,0.3068893551826477,-0.16560569405555725,0.4989869296550751,-0.6897711753845215,-0.8662863969802856,-0.8662863969802856,-0.8662863969802856,-0.8662863969802856,-0.9534966349601746,-0.9534966349601746,-0.9534966349601746,-0.9534966349601746,-0.9364617466926575,-0.9364617466926575,-0.9364617466926575,-0.9085501432418823,-0.9085501432418823,-0.9085501432418823,-0.9085501432418823,-0.9363338947296143,-0.9363338947296143,-0.9363338947296143
25,3.9924466609954834,235.0,166.0,0.7160000205039978,-0.2644757330417633,0.12615391612052917,0.3068893551826477,0.4170019328594208,0.7498512268066406,0.15733663737773895,0.05946090817451477,0.02367905154824257,0.029871325939893723,0.04359418898820877,0.031405266374349594,-0.2644757330417633,0.12615391612052917,0.3068893551826477,-0.16599616408348083,0.4997023940086365,-0.6853266954421997,-0.8810781836509705,-0.8810781836509705,-0.8810781836509705,-0.8810781836509705,-0.9526419043540955,-0.9526419043540955,-0.9526419043540955,-0.9526419043540955,-0.9402573704719543,-0.9402573704719543,-0.9402573704719543,-0.9128116369247437,-0.9128116369247437,-0.9128116369247437,-0.9128116369247437,-0.9371894598007202,-0.9371894598007202,-0.9371894598007202
26,4.024452209472656,235.0,166.0,0.7160000205039978,-0.2644757330417633,0.12615391612052917,0.3068893551826477,0.4221668839454651,0.7485771775245667,0.15586161613464355,0.06690602004528046,0.022355787456035614,0.03409634158015251,0.04386351257562637,0.03254178911447525,-0.2644757330417633,0.12615391612052917,0.3068893551826477,-0.15566620230674744,0.4971544146537781,-0.6882767677307129,-0.8661879897117615,-0.8661879897117615,-0.8661879897117615,-0.8661879897117615,-0.9552884101867676,-0.9552884101867676,-0.9552884101867676,-0.9552884101867676,-0.9318073391914368,-0.9318073391914368,-0.9318073391914368,-0.9122729897499084,-0.9122729897499084,-0.9122729897499084,-0.9122729897499084,-0.9349164366722107,-0.9349164366722107,-0.9349164366722107
27,4.056570053100586,235.0,166.0,0.7170000076293945,-0.2644757330417633,0.129230797290802,0.3068893551826477,0.41743695735931396,0.7505232691764832,0.15690918266773224,0.06314869970083237,0.0215328186750412,0.02894674800336361,0.04356415942311287,0.03374099358916283,-0.2644757330417633,0.129230797290802,0.3068893551826477,-0.16512605547904968,0.5010465383529663,-0.6861816644668579,-0.8737025856971741,-0.8737025856971741,-0.8737025856971741,-0.8737025856971741,-0.95693439245224,-0.95693439245224,-0.95693439245224,-0.95693439245224,-0.9421064853668213,-0.9421064853668213,-0.9421064853668213,-0.9128716588020325,-0.9128716588020325,-0.9128716588020325,-0.9128716588020325,-0.9325180053710938,-0.9325180053710938,-0.9325180053710938
28,4.088466644287109,236.0,166.0,0.718000054359436,-0.26134586334228516,0.13230785727500916,0.3068893551826477,0.4140562415122986,0.7501007318496704,0.1560794562101364,0.05733933299779892,0.02092413417994976,0.0339665487408638,0.05002396181225777,0.03495045378804207,-0.26134586334228516,0.13230785727500916,0.3068893551826477,-0.17188753187656403,0.5002014636993408,-0.6878410577774048,-0.885321319103241,-0.885321319103241,-0.885321319103241,-0.885321319103241,-0.9581517577171326,-0.9581517577171326,-0.9581517577171326,-0.9581517577171326,-0.9320669174194336,-0.9320669174194336,-0.9320669174194336,-0.8999520540237427,-0.8999520540237427,-0.8999520540237427,-0.8999520540237427,-0.9300990700721741,-0.9300990700721741,-0.9300990700721741
29,4.136476516723633,236.0,166.0,0.718000054359436,-0.26134586334228516,0.13230785727500916,0.3068893551826477,0.4184233248233795,0.7487528324127197,0.15213876962661743,0.06627923995256424,0.021701965481042862,0.03115406073629856,0.047580379992723465,0.033841267228126526,-0.26134586334228516,0.13230785727500916,0.3068893551826477,-0.16315333545207977,0.49750563502311707,-0.6957224607467651,-0.8674415349960327,-0.8674415349960327,-0.8674415349960327,-0.8674415349960327,-0.9565960764884949,-0.9565960764884949,-0.9565960764884949,-0.9565960764884949,-0.937691867351532,-0.937691867351532,-0.937691867351532,-0.9048392176628113,-0.9048392176628113,-0.9048392176628113,-0.9048392176628113,-0.9323174357414246,-0.9323174357414246,-0.9323174357414246
30,4.168593406677246,235.0,166.0,0.718000054359436,-0.2644757330417633,0.13230785727500916,0.3068893551826477,0.4164767563343048,0.7490721344947815,0.15480414032936096,0.06267883628606796,0.023260530084371567,0.03043278306722641,0.03814737871289253,0.03314725309610367,-0.2644757330417633,0.13230785727500916,0.3068893551826477,-0.167046457529068,0.4981442987918854,-0.6903917193412781,-0.8746423125267029,-0.8746423125267029,-0.8746423125267029,-0.8746423125267029,-0.9534789323806763,-0.9534789323806763,-0.9534789323806763,-0.9534789323806763,-0.939134418964386,-0.939134418964386,-0.939134418964386,-0.9237052202224731,-0.9237052202224731,-0.9237052202224731,-0.9237052202224731,-0.9337055087089539,-0.9337055087089539,-0.9337055087089539
31,4.199491024017334,235.0,166.0,0.718000054359436,-0.2644757330417633,0.13230785727500916,0.3068893551826477,0.4179059565067291,0.7488397359848022,0.1545601785182953,0.06751427054405212,0.022282669320702553,0.03179292008280754,0.043105076998472214,0.031194614246487617,-0.2644757330417633,0.13230785727500916,0.3068893551826477,-0.16418807208538055,0.4976795017719269,-0.6908796429634094,-0.8649714589118958,-0.8649714589118958,-0.8649714589118958,-0.8649714589118958,-0.9554346799850464,-0.9554346799850464,-0.9554346799850464,-0.9554346799850464,-0.9364141821861267,-0.9364141821861267,-0.9364141821861267,-0.9137898683547974,-0.9137898683547974,-0.9137898683547974,-0.9137898683547974,-0.9376107454299927,-0.9376107454299927,-0.9376107454299927
32,4.231498718261719,235.0,165.0,0.718000054359436,-0.2644757330417633,0.13230785727500916,0.3110647201538086,0.41896307468414307,0.7500402927398682,0.1538100689649582,0.0644751563668251,0.022621864452958107,0.030264178290963173,0.04056694731116295,0.03266222029924393,-0.2644757330417633,0.13230785727500916,0.3110647201538086,-0.16207385063171387,0.5000805854797363,-0.6923798322677612,-0.871049702167511,-0.871049702167511,-0.871049702167511,-0.871049702167511,-0.9547562599182129,-0.9547562599182129,-0.9547562599182129,-0.9547562599182129,-0.9394716620445251,-0.9394716620445251,-0.9394716620445251,-0.9188660979270935,-0.9188660979270935,-0.9188660979270935,-0.9188660979270935,-0.9346755743026733,-0.9346755743026733,-0.9346755743026733
33,4.278517723083496,235.0,166.0,0.7170000076293945,-0.2644757330417633,0.129230797290802,0.3068893551826477,0.4231312870979309,0.7492435574531555,0.15328221023082733,0.0671229138970375,0.019661130383610725,0.031039491295814514,0.04398668184876442,0.032320741564035416,-0.2644757330417633,0.129230797290802,0.3068893551826477,-0.15373744070529938,0.49848711490631104,-0.693435549736023,-0.8657541871070862,-0.8657541871070862,-0.8657541871070862,-0.8657541871070862,-0.9606777429580688,-0.9606777429580688,-0.9606777429580688,-0.9606777429580688,-0.9379210472106934,-0.9379210472106934,-0.9379210472106934,-0.9120266437530518,-0.9120266437530518,-0.9120266437530518,-0.9120266437530518,-0.9353585243225098,-0.9353585243225098,-0.9353585243225098
34,4.309726715087891,235.0,165.0,0.718000054359436,-0.2644757330417633,0.13230785727500916,0.3110647201538086,0.42351943254470825,0.7499598264694214,0.15405212342739105,0.06128440797328949,0.02062859758734703,0.02858874946832657,0.03788767009973526,0.030764872208237648,-0.2644757330417633,0.13230785727500916,0.3110647201538086,-0.1529611349105835,0.4999196231365204,-0.6918957233428955,-0.8774311542510986,-0.8774311542510986,-0.8774311542510986,-0.8774311542510986,-0.9587427973747253,-0.9587427973747253,-0.9587427973747253,-0.9587427973747253,-0.9428225159645081,-0.9428225159645081,-0.9428225159645081,-0.9242246747016907,-0.9242246747016907,-0.9242246747016907,-0.9242246747016907,-0.9384702444076538,-0.9384702444076538,-0.9384702444076538
35,4.341533184051514,235.0,166.0,0.718000054359436,-0.2644757330417633,0.13230785727500916,0.3068893551826477,0.41965582966804504,0.7484801411628723,0.15299534797668457,0.059690430760383606,0.02208869718015194,0.02912752702832222,0.04179809242486954,0.03137173131108284,-0.2644757330417633,0.13230785727500916,0.3068893551826477,-0.1606883555650711,0.4969603419303894,-0.6940093040466309,-0.8806191682815552,-0.8806191682815552,-0.8806191682815552,-0.8806191682815552,-0.9558225870132446,-0.9558225870132446,-0.9558225870132446,-0.9558225870132446,-0.9417449235916138,-0.9417449235916138,-0.9417449235916138,-0.9164038300514221,-0.9164038300514221,-0.9164038300514221,-0.9164038300514221,-0.9372565150260925,-0.9372565150260925,-0.9372565150260925
36,4.373540878295898,235.0,165.0,0.7170000076293945,-0.2644757330417633,0.129230797290802,0.3110647201538086,0.41941648721694946,0.7499696612358093,0.15332987904548645,0.05426090583205223,0.022634420543909073,0.03232729062438011,0.047753456979990005,0.033502914011478424,-0.2644757330417633,0.129230797290802,0.3110647201538086,-0.16116702556610107,0.49993929266929626,-0.6933402419090271,-0.8914781808853149,-0.8914781808853149,-0.8914781808853149,-0.8914781808853149,-0.9547311663627625,-0.9547311663627625,-0.9547311663627625,-0.9547311663627625,-0.9353454113006592,-0.9353454113006592,-0.9353454113006592,-0.9044930934906006,-0.9044930934906006,-0.9044930934906006,-0.9044930934906006,-0.9329941868782043,-0.9329941868782043,-0.9329941868782043
37,4.421551704406738,235.0,166.0,0.718000054359436,-0.2644757330417633,0.13230785727500916,0.3068893551826477,0.41713228821754456,0.7498588562011719,0.1546855866909027,0.059616804122924805,0.02070346102118492,0.030951673164963722,0.04781562089920044,0.03450069576501846,-0.2644757330417633,0.13230785727500916,0.3068893551826477,-0.16573543846607208,0.49971771240234375,-0.6906288266181946,-0.8807663917541504,-0.8807663917541504,-0.8807663917541504,-0.8807663917541504,-0.9585930705070496,-0.9585930705070496,-0.9585930705070496,-0.9585930705070496,-0.9380966424942017,-0.9380966424942017,-0.9380966424942017,-0.9043687582015991,-0.9043687582015991,-0.9043687582015991,-0.9043687582015991,-0.9309986233711243,-0.9309986233711243,-0.9309986233711243
38,4.4525580406188965,235.0,166.0,0.7170000076293945,-0.2644757330417633,0.129230797290802,0.3068893551826477,0.4184284508228302,0.7488082051277161,0.1535300612449646,0.055362313985824585,0.02054552175104618,0.03356984630227089,0.048346810042858124,0.03407894819974899,-0.2644757330417633,0.129230797290802,0.3068893551826477,-0.1631430983543396,0.49761638045310974,-0.6929398775100708,-0.8892753720283508,-0.8892753720283508,-0.8892753720283508,-0.8892753720283508,-0.9589089751243591,-0.9589089751243591,-0.9589089751243591,-0.9589089751243591,-0.9328603148460388,-0.9328603148460388,-0.9328603148460388,-0.9033063650131226,-0.9033063650131226,-0.9033063650131226,-0.9033063650131226,-0.9318420886993408,-0.9318420886993408,-0.9318420886993408
39,4.484565734863281,235.0,166.0,0.7170000076293945,-0.2644757330417633,0.129230797290802,0.3068893551826477,0.42206278443336487,0.7485038638114929,0.15267916023731232,0.06007704138755798,0.02183966338634491,0.028755372390151024,0.039978597313165665,0.033217448741197586,-0.2644757330417633,0.129230797290802,0.3068893551826477,-0.15587441623210907,0.4970077574253082,-0.6946417093276978,-0.879845917224884,-0.879845917224884,-0.879845917224884,-0.879845917224884,-0.9563207030296326,-0.9563207030296326,-0.9563207030296326,-0.9563207030296326,-0.9424892663955688,-0.9424892663955688,-0.9424892663955688,-0.9200428128242493,-0.9200428128242493,-0.9200428128242493,-0.9200428128242493,-0.933565080165863,-0.933565080165863,-0.933565080165863
40,4.516645431518555,235.0,166.0,0.7170000076293945,-0.2644757330417633,0.129230797290802,0.3068893551826477,0.4226130545139313,0.7490125298500061,0.15516899526119232,0.0626407116651535,0.022353623062372208,0.03219734504818916,0.04330963268876076,0.029145170003175735,-0.2644757330417633,0.129230797290802,0.3068893551826477,-0.15477392077445984,0.4980250597000122,-0.689661979675293,-0.8747185468673706,-0.8747185468673706,-0.8747185468673706,-0.8747185468673706,-0.9552927613258362,-0.9552927613258362,-0.9552927613258362,-0.9552927613258362,-0.9356052875518799,-0.9356052875518799,-0.9356052875518799,-0.9133807420730591,-0.9133807420730591,-0.9133807420730591,-0.9133807420730591,-0.9417096376419067,-0.9417096376419067,-0.9417096376419067
41,4.548584938049316,236.0,165.0,0.7170000076293945,-0.26134586334228516,0.129230797290802,0.3110647201538086,0.41895222663879395,0.7496808171272278,0.15101787447929382,0.060510531067848206,0.019897911697626114,0.027734342962503433,0.04466532915830612,0.03289036452770233,-0.26134586334228516,0.129230797290802,0.3110647201538086,-0.1620955467224121,0.49936163425445557,-0.6979642510414124,-0.8789789080619812,-0.8789789080619812,-0.8789789080619812,-0.8789789080619812,-0.9602041840553284,-0.9602041840553284,-0.9602041840553284,-0.9602041840553284,-0.9445313215255737,-0.9445313215255737,-0.9445313215255737,-0.9106693267822266,-0.9106693267822266,-0.9106693267822266,-0.9106693267822266,-0.9342193007469177,-0.9342193007469177,-0.9342193007469177
42,4.579935073852539,236.0,165.0,0.7160000205039978,-0.26134586334228516,0.12615391612052917,0.3110647201538086,0.4225216209888458,0.7490180730819702,0.15527184307575226,0.05445048213005066,0.02019784227013588,0.027844663709402084,0.04351365193724632,0.033667393028736115,-0.26134586334228516,0.12615391612052917,0.3110647201538086,-0.15495674312114716,0.49803608655929565,-0.6894563436508179,-0.8910990357398987,-0.8910990357398987,-0.8910990357398987,-0.8910990357398987,-0.9596043229103088,-0.9596043229103088,-0.9596043229103088,-0.9596043229103088,-0.9443106651306152,-0.9443106651306152,-0.9443106651306152,-0.9129726886749268,-0.9129726886749268,-0.9129726886749268,-0.9129726886749268,-0.932665228843689,-0.932665228843689,-0.932665228843689
43,4.612068176269531,237.0,165.0,0.718000054359436,-0.2582159638404846,0.13230785727500916,0.3110647201538086,0.41683757305145264,0.750048816204071,0.1539529263973236,0.05987648665904999,0.02369946613907814,0.033921629190444946,0.0493939034640789,0.03187956660985947,-0.2582159638404846,0.13230785727500916,0.3110647201538086,-0.16632483899593353,0.5000976324081421,-0.6920941472053528,-0.8802470564842224,-0.8802470564842224,-0.8802470564842224,-0.8802470564842224,-0.9526010751724243,-0.9526010751724243,-0.9526010751724243,-0.9526010751724243,-0.9321567416191101,-0.9321567416191101,-0.9321567416191101,-0.901212215423584,-0.901212215423584,-0.901212215423584,-0.901212215423584,-0.9362408518791199,-0.9362408518791199,-0.9362408518791199
44,4.659036159515381,237.0,165.0,0.7170000076293945,-0.2582159638404846,0.129230797290802,0.3110647201538086,0.4201465845108032,0.750035285949707,0.15194320678710938,0.058817438781261444,0.02288617566227913,0.03149162977933884,0.04908617585897446,0.030970430001616478,-0.2582159638404846,0.129230797290802,0.3110647201538086,-0.15970686078071594,0.5000705718994141,-0.6961135864257812,-0.8823651075363159,-0.8823651075363159,-0.8823651075363159,-0.8823651075363159,-0.9542276263237,-0.9542276263237,-0.9542276263237,-0.9542276263237,-0.9370167255401611,-0.9370167255401611,-0.9370167255401611,-0.9018276333808899,-0.9018276333808899,-0.9018276333808899,-0.9018276333808899,-0.9380591511726379,-0.9380591511726379,-0.9380591511726379
45,4.705088138580322,239.0,165.0,0.718000054359436,-0.25195619463920593,0.13230785727500916,0.3110647201538086,0.42314425110816956,0.7490180730819702,0.15180636942386627,0.060986027121543884,0.02133345603942871,0.027930529788136482,0.042045436799526215,0.032699983566999435,-0.25195619463920593,0.13230785727500916,0.3110647201538086,-0.15371151268482208,0.49803614616394043,-0.6963872909545898,-0.8780279755592346,-0.8780279755592346,-0.8780279755592346,-0.8780279755592346,-0.9573330879211426,-0.9573330879211426,-0.9573330879211426,-0.9573330879211426,-0.9441389441490173,-0.9441389441490173,-0.9441389441490173,-0.9159091114997864,-0.9159091114997864,-0.9159091114997864,-0.9159091114997864,-0.9346000552177429,-0.9346000552177429,-0.9346000552177429
46,4.736974239349365,243.0,164.0,0.718000054359436,-0.23943662643432617,0.13230785727500916,0.3152400851249695,0.41994303464889526,0.7491476535797119,0.15236812829971313,0.058550313115119934,0.02086339145898819,0.022624002769589424,0.03782002627849579,0.03076959028840065,-0.23943662643432617,0.13230785727500916,0.3152400851249695,-0.16011396050453186,0.4982953369617462,-0.6952637434005737,-0.8828993439674377,-0.8828993439674377,-0.8828993439674377,-0.8828993439674377,-0.9582732319831848,-0.9582732319831848,-0.9582732319831848,-0.9582732319831848,-0.9547519683837891,-0.9547519683837891,-0.9547519683837891,-0.924359917640686,-0.924359917640686,-0.924359917640686,-0.924359917640686,-0.9384608268737793,-0.9384608268737793,-0.9384608268737793
47,4.76810359954834,246.0,165.0,0.7210000157356262,-0.23004694283008575,0.14153851568698883,0.3110647201538086,0.41980183124542236,0.7469367384910583,0.15206129848957062,0.05342546105384827,0.019794991239905357,0.023708391934633255,0.039247673004865646,0.0338410884141922,-0.23004694283008575,0.14153851568698883,0.3110647201538086,-0.16039635241031647,0.4938734471797943,-0.6958774328231812,-0.8931490778923035,-0.8931490778923035,-0.8931490778923035,-0.8931490778923035,-0.9604099988937378,-0.9604099988937378,-0.9604099988937378,-0.9604099988937378,-0.9525831937789917,-0.9525831937789917,-0.9525831937789917,-0.9215046763420105,-0.9215046763420105,-0.9215046763420105,-0.9215046763420105,-0.9323177933692932,-0.9323177933692932,-0.9323177933692932
48,4.799989700317383,248.0,165.0,0.718000054359436,-0.22378717362880707,0.13230785727500916,0.3110647201538086,0.4248397648334503,0.745398223400116,0.14773938059806824,0.06959138065576553,0.018009550869464874,0.024142203852534294,0.03985481336712837,0.032054610550403595,-0.22378717362880707,0.13230785727500916,0.3110647201538086,-0.15032048523426056,0.49079641699790955,-0.7045212388038635,-0.8608172535896301,-0.8608172535896301,-0.8608172535896301,-0.8608172535896301,-0.9639809131622314,-0.9639809131622314,-0.9639809131622314,-0.9639809131622314,-0.9517155885696411,-0.9517155885696411,-0.9517155885696411,-0.9202903509140015,-0.9202903509140015,-0.9202903509140015,-0.9202903509140015,-0.935890793800354,-0.935890793800354,-0.935890793800354
49,4.847005367279053,251.0,164.0,0.7190000414848328,-0.21439749002456665,0.13538473844528198,0.3152400851249695,0.41663113236427307,0.7457635402679443,0.15018770098686218,0.05922466143965721,0.020486311987042427,0.026193808764219284,0.045015450567007065,0.036131322383880615,-0.21439749002456665,0.13538473844528198,0.3152400851249695,-0.16673775017261505,0.4915270507335663,-0.6996245980262756,-0.881550669670105,-0.881550669670105,-0.881550669670105,-0.881550669670105,-0.9590273499488831,-0.9590273499488831,-0.9590273499488831,-0.9590273499488831,-0.9476124048233032,-0.9476124048233032,-0.9476124048233032,-0.9099690914154053,-0.9099690914154053,-0.9099690914154053,-0.9099690914154053,-0.9277373552322388,-0.9277373552322388,-0.9277373552322388
50,4.8780131340026855,253.0,164.0,0.7190000414848328,-0.20813772082328796,0.13538473844528198,0.3152400851249695,0.42040514945983887,0.7443166375160217,0.1481645703315735,0.05163455009460449,0.02059253118932247,0.02612285129725933,0.03993479907512665,0.03418531268835068,-0.20813772082328796,0.13538473844528198,0.3152400851249695,-0.15918970108032227,0.48863324522972107,-0.703670859336853,-0.896730899810791,-0.896730899810791,-0.896730899810791,-0.896730899810791,-0.9588149189949036,-0.9588149189949036,-0.9588149189949036,-0.9588149189949036,-0.9477543234825134,-0.9477543234825134,-0.9477543234825134,-0.9201303720474243,-0.9201303720474243,-0.9201303720474243,-0.9201303720474243,-0.9316293597221375,-0.9316293597221375,-0.9316293597221375
51,4.926023483276367,256.0,164.0,0.7220000624656677,-0.19874803721904755,0.14461557567119598,0.3152400851249695,0.4175599217414856,0.7457626461982727,0.15047569572925568,0.04326961189508438,0.02286926656961441,0.023350011557340622,0.03259584307670593,0.03528475761413574,-0.19874803721904755,0.14461557567119598,0.3152400851249695,-0.1648801565170288,0.4915252923965454,-0.699048638343811,-0.9134607911109924,-0.9134607911109924,-0.9134607911109924,-0.9134607911109924,-0.9542614817619324,-0.9542614817619324,-0.9542614817619324,-0.9542614817619324,-0.9532999992370605,-0.9532999992370605,-0.9532999992370605,-0.9348083138465881,-0.9348083138465881,-0.9348083138465881,-0.9348083138465881,-0.9294304847717285,-0.9294304847717285,-0.9294304847717285
52,4.9582319259643555,258.0,163.0,0.7210000157356262,-0.19248826801776886,0.14153851568698883,0.31941545009613037,0.4151918292045593,0.7455003261566162,0.14970959722995758,0.04003777354955673,0.024072494357824326,0.02473512664437294,0.03548059239983559,0.03718749061226845,-0.19248826801776886,0.14153851568698883,0.31941545009613037,-0.16961635649204254,0.49100059270858765,-0.7005808353424072,-0.9199244379997253,-0.9199244379997253,-0.9199244379997253,-0.9199244379997253,-0.9518550038337708,-0.9518550038337708,-0.9518550038337708,-0.9518550038337708,-0.9505297541618347,-0.9505297541618347,-0.9505297541618347,-0.9290388226509094,-0.9290388226509094,-0.9290388226509094,-0.9290388226509094,-0.9256250262260437,-0.9256250262260437,-0.9256250262260437
53,4.99003791809082,260.0,163.0,0.7220000624656677,-0.18622848391532898,0.14461557567119598,0.31941545009613037,0.41453221440315247,0.7444332242012024,0.1510908454656601,0.039442028850317,0.023895056918263435,0.02306271344423294,0.034838251769542694,0.03641032055020332,-0.18622848391532898,0.14461557567119598,0.31941545009613037,-0.17093554139137268,0.48886650800704956,-0.6978182792663574,-0.9211159348487854,-0.9211159348487854,-0.9211159348487854,-0.9211159348487854,-0.9522098898887634,-0.9522098898887634,-0.9522098898887634,-0.9522098898887634,-0.9538745880126953,-0.9538745880126953,-0.9538745880126953,-0.9303234815597534,-0.9303234815597534,-0.9303234815597534,-0.9303234815597534,-0.9271793365478516,-0.9271793365478516,-0.9271793365478516
54,5.022047996520996,263.0,163.0,0.7220000624656677,-0.17683881521224976,0.14461557567119598,0.31941545009613037,0.4148194193840027,0.7436187267303467,0.14974233508110046,0.03954306244850159,0.02541358582675457,0.02245694398880005,0.033754441887140274,0.03890027850866318,-0.17683881521224976,0.14461557567119598,0.31941545009613037,-0.17036117613315582,0.48723751306533813,-0.7005153298377991,-0.9209138751029968,-0.9209138751029968,-0.9209138751029968,-0.9209138751029968,-0.949172854423523,-0.949172854423523,-0.949172854423523,-0.949172854423523,-0.9550861120223999,-0.9550861120223999,-0.9550861120223999,-0.9324911236763,-0.9324911236763,-0.9324911236763,-0.9324911236763,-0.9221994280815125,-0.9221994280815125,-0.9221994280815125
55,5.054221153259277,265.0,163.0,0.7230000495910645,-0.17057903110980988,0.1476924568414688,0.31941545009613037,0.412094384431839,0.7442429065704346,0.1484430581331253,0.037976402789354324,0.027575163170695305,0.025354282930493355,0.03354586660861969,0.04034857451915741,-0.17057903110980988,0.1476924568414688,0.31941545009613037,-0.17581123113632202,0.4884858727455139,-0.7031139135360718,-0.9240471720695496,-0.9240471720695496,-0.9240471720695496,-0.9240471720695496,-0.9448496699333191,-0.9448496699333191,-0.9448496699333191,-0.9448496699333191,-0.9492914080619812,-0.9492914080619812,-0.9492914080619812,-0.9329082369804382,-0.9329082369804382,-0.9329082369804382,-0.9329082369804382,-0.9193028807640076,-0.9193028807640076,-0.9193028807640076
56,5.086063385009766,268.0,163.0,0.7220000624656677,-0.16118936240673065,0.14461557567119598,0.31941545009613037,0.4164448380470276,0.7422141432762146,0.1458939164876938,0.04185311868786812,0.02804655022919178,0.0286538265645504,0.037599142640829086,0.038399189710617065,-0.16118936240673065,0.14461557567119598,0.31941545009613037,-0.16711030900478363,0.484428346157074,-0.70821213722229,-0.916293740272522,-0.916293740272522,-0.916293740272522,-0.916293740272522,-0.9439069032669067,-0.9439069032669067,-0.9439069032669067,-0.9439069032669067,-0.9426923394203186,-0.9426923394203186,-0.9426923394203186,-0.9248017072677612,-0.9248017072677612,-0.9248017072677612,-0.9248017072677612,-0.9232016205787659,-0.9232016205787659,-0.9232016205787659
57,5.118070602416992,270.0,164.0,0.7230000495910645,-0.15492957830429077,0.1476924568414688,0.3152400851249695,0.4097062945365906,0.7426241040229797,0.1492081582546234,0.03651340305805206,0.025761853903532028,0.029906131327152252,0.036498479545116425,0.04116915166378021,-0.15492957830429077,0.1476924568414688,0.3152400851249695,-0.18058741092681885,0.4852481782436371,-0.7015836834907532,-0.9269732236862183,-0.9269732236862183,-0.9269732236862183,-0.9269732236862183,-0.9484763145446777,-0.9484763145446777,-0.9484763145446777,-0.9484763145446777,-0.9401877522468567,-0.9401877522468567,-0.9401877522468567,-0.927003026008606,-0.927003026008606,-0.927003026008606,-0.927003026008606,-0.9176616668701172,-0.9176616668701172,-0.9176616668701172
58,5.165170669555664,273.0,165.0,0.7230000495910645,-0.14553990960121155,0.1476924568414688,0.3110647201538086,0.41143107414245605,0.7434694170951843,0.14480282366275787,0.03844551369547844,0.019950686022639275,0.02332100085914135,0.0335240364074707,0.04259375482797623,-0.14553990960121155,0.1476924568414688,0.3110647201538086,-0.1771378368139267,0.48693886399269104,-0.7103943824768066,-0.9231089949607849,-0.9231089949607849,-0.9231089949607849,-0.9231089949607849,-0.9600986242294312,-0.9600986242294312,-0.9600986242294312,-0.9600986242294312,-0.953357994556427,-0.953357994556427,-0.953357994556427,-0.9329519271850586,-0.9329519271850586,-0.9329519271850586,-0.9329519271850586,-0.9148125052452087,-0.9148125052452087,-0.9148125052452087
59,5.1960883140563965,276.0,165.0,0.7230000495910645,-0.13615024089813232,0.1476924568414688,0.3110647201538086,0.41198787093162537,0.7412596940994263,0.14545264840126038,0.03923255205154419,0.02643071487545967,0.027088677510619164,0.030929777771234512,0.040589481592178345,-0.13615024089813232,0.1476924568414688,0.3110647201538086,-0.17602427303791046,0.48251938819885254,-0.7090947031974792,-0.9215348958969116,-0.9215348958969116,-0.9215348958969116,-0.9215348958969116,-0.9471385478973389,-0.9471385478973389,-0.9471385478973389,-0.9471385478973389,-0.9458226561546326,-0.9458226561546326,-0.9458226561546326,-0.9381404519081116,-0.9381404519081116,-0.9381404519081116,-0.9381404519081116,-0.9188210368156433,-0.9188210368156433,-0.9188210368156433
60,5.228095531463623,279.0,165.0,0.7240000367164612,-0.1267605572938919,0.15076933801174164,0.3110647201538086,0.4087766110897064,0.7422003149986267,0.14396168291568756,0.03226453810930252,0.023817773908376694,0.027636712417006493,0.03499717265367508,0.04573976993560791,-0.1267605572938919,0.15076933801174164,0.3110647201538086,-0.18244679272174835,0.4844006597995758,-0.7120766639709473,-0.9354709386825562,-0.9354709386825562,-0.9354709386825562,-0.9354709386825562,-0.952364444732666,-0.952364444732666,-0.952364444732666,-0.952364444732666,-0.9447265863418579,-0.9447265863418579,-0.9447265863418579,-0.930005669593811,-0.930005669593811,-0.930005669593811,-0.930005669593811,-0.9085204601287842,-0.9085204601287842,-0.9085204601287842
61,5.260169982910156,282.0,166.0,0.7240000367164612,-0.11737088859081268,0.15076933801174164,0.3068893551826477,0.40835896134376526,0.7409488558769226,0.1437249779701233,0.03233889117836952,0.029564224183559418,0.029369860887527466,0.04046965390443802,0.044735137373209,-0.11737088859081268,0.15076933801174164,0.3068893551826477,-0.1832820624113083,0.4818977117538452,-0.7125500440597534,-0.9353222250938416,-0.9353222250938416,-0.9353222250938416,-0.9353222250938416,-0.94087153673172,-0.94087153673172,-0.94087153673172,-0.94087153673172,-0.9412602782249451,-0.9412602782249451,-0.9412602782249451,-0.9190607070922852,-0.9190607070922852,-0.9190607070922852,-0.9190607070922852,-0.9105297327041626,-0.9105297327041626,-0.9105297327041626
62,5.291111469268799,285.0,166.0,0.7270000576972961,-0.10798121988773346,0.16000017523765564,0.3068893551826477,0.40450412034988403,0.7396337389945984,0.14424265921115875,0.02911236695945263,0.03066641092300415,0.03367961198091507,0.04332837462425232,0.046767812222242355,-0.10798121988773346,0.16000017523765564,0.3068893551826477,-0.19099178910255432,0.479267418384552,-0.7115147113800049,-0.9417752623558044,-0.9417752623558044,-0.9417752623558044,-0.9417752623558044,-0.9386671781539917,-0.9386671781539917,-0.9386671781539917,-0.9386671781539917,-0.932640790939331,-0.932640790939331,-0.932640790939331,-0.9133432507514954,-0.9133432507514954,-0.9133432507514954,-0.9133432507514954,-0.9064643979072571,-0.9064643979072571,-0.9064643979072571
63,5.3231201171875,289.0,166.0,0.7260000109672546,-0.0954616591334343,0.1569231152534485,0.3068893551826477,0.4047856628894806,0.7392280697822571,0.1428704708814621,0.029292332008481026,0.028002316132187843,0.030619630590081215,0.04231110215187073,0.051645707339048386,-0.0954616591334343,0.1569231152534485,0.3068893551826477,-0.1904286891222,0.47845619916915894,-0.7142590284347534,-0.9414153099060059,-0.9414153099060059,-0.9414153099060059,-0.9414153099060059,-0.9439953565597534,-0.9439953565597534,-0.9439953565597534,-0.9439953565597534,-0.9387607574462891,-0.9387607574462891,-0.9387607574462891,-0.9153777956962585,-0.9153777956962585,-0.9153777956962585,-0.9153777956962585,-0.896708607673645,-0.896708607673645,-0.896708607673645
64,5.3552751541137695,292.0,166.0,0.7270000576972961,-0.08607199043035507,0.16000017523765564,0.3068893551826477,0.40454912185668945,0.7382605671882629,0.14239250123500824,0.026224719360470772,0.02484048344194889,0.029107796028256416,0.040546491742134094,0.05242619290947914,-0.08607199043035507,0.16000017523765564,0.3068893551826477,-0.1909017413854599,0.4765211045742035,-0.7152149677276611,-0.9475505352020264,-0.9475505352020264,-0.9475505352020264,-0.9475505352020264,-0.9503190517425537,-0.9503190517425537,-0.9503190517425537,-0.9503190517425537,-0.9417843818664551,-0.9417843818664551,-0.9417843818664551,-0.9189069867134094,-0.9189069867134094,-0.9189069867134094,-0.9189069867134094,-0.8951476216316223,-0.8951476216316223,-0.8951476216316223
65,5.403138637542725,295.0,167.0,0.7270000576972961,-0.07668231427669525,0.16000017523765564,0.3027139902114868,0.39826449751853943,0.7387704849243164,0.14554116129875183,0.023953422904014587,0.03003004938364029,0.03701700642704964,0.04101543873548508,0.053028885275125504,-0.07668231427669525,0.16000017523765564,0.3027139902114868,-0.20347101986408234,0.4775409698486328,-0.7089176774024963,-0.9520931243896484,-0.9520931243896484,-0.9520931243896484,-0.9520931243896484,-0.9399399161338806,-0.9399399161338806,-0.9399399161338806,-0.9399399161338806,-0.9259659647941589,-0.9259659647941589,-0.9259659647941589,-0.9179691076278687,-0.9179691076278687,-0.9179691076278687,-0.9179691076278687,-0.8939422369003296,-0.8939422369003296,-0.8939422369003296
66,5.435145378112793,298.0,167.0,0.7280000448226929,-0.06729264557361603,0.16307705640792847,0.3027139902114868,0.40020865201950073,0.7388908267021179,0.1444946527481079,0.02163195051252842,0.026772556826472282,0.03342154994606972,0.045625023543834686,0.05138785392045975,-0.06729264557361603,0.16307705640792847,0.3027139902114868,-0.19958266615867615,0.47778165340423584,-0.7110106945037842,-0.9567360877990723,-0.9567360877990723,-0.9567360877990723,-0.9567360877990723,-0.9464548826217651,-0.9464548826217651,-0.9464548826217651,-0.9464548826217651,-0.9331569075584412,-0.9331569075584412,-0.9331569075584412,-0.9087499380111694,-0.9087499380111694,-0.9087499380111694,-0.9087499380111694,-0.8972243070602417,-0.8972243070602417,-0.8972243070602417
67,5.466290473937988,301.0,167.0,0.7280000448226929,-0.057902973145246506,0.16307705640792847,0.3027139902114868,0.40196090936660767,0.7381819486618042,0.14377816021442413,0.021038489416241646,0.032881349325180054,0.039992377161979675,0.05346757918596268,0.054447807371616364,-0.057902973145246506,0.16307705640792847,0.3027139902114868,-0.19607819616794586,0.4763639569282532,-0.7124437093734741,-0.9579229950904846,-0.9579229950904846,-0.9579229950904846,-0.9579229950904846,-0.9342373013496399,-0.9342373013496399,-0.9342373013496399,-0.9342373013496399,-0.920015275478363,-0.920015275478363,-0.920015275478363,-0.8930648565292358,-0.8930648565292358,-0.8930648565292358,-0.8930648565292358,-0.8911044001579285,-0.8911044001579285,-0.8911044001579285
68,5.498160362243652,305.0,167.0,0.7270000576972961,-0.04538341239094734,0.16000017523765564,0.3027139902114868,0.39869755506515503,0.7384160757064819,0.14276257157325745,0.020800147205591202,0.033427704125642776,0.040056370198726654,0.054174382239580154,0.05871915444731712,-0.04538341239094734,0.16000017523765564,0.3027139902114868,-0.20260490477085114,0.47683218121528625,-0.7144748568534851,-0.9583997130393982,-0.9583997130393982,-0.9583997130393982,-0.9583997130393982,-0.9331445693969727,-0.9331445693969727,-0.9331445693969727,-0.9331445693969727,-0.9198872447013855,-0.9198872447013855,-0.9198872447013855,-0.8916512131690979,-0.8916512131690979,-0.8916512131690979,-0.8916512131690979,-0.8825616836547852,-0.8825616836547852,-0.8825616836547852
69,5.529675483703613,308.0,168.0,0.7300000190734863,-0.03599373996257782,0.16923083364963531,0.2985386252403259,0.3985472619533539,0.7390038967132568,0.1397428810596466,0.0148050831630826,0.03216896206140518,0.03675626590847969,0.057305436581373215,0.06265322864055634,-0.03599373996257782,0.16923083364963531,0.2985386252403259,-0.20290549099445343,0.47800779342651367,-0.7205142378807068,-0.9703898429870605,-0.9703898429870605,-0.9703898429870605,-0.9703898429870605,-0.9356620907783508,-0.9356620907783508,-0.9356620907783508,-0.9356620907783508,-0.9264874458312988,-0.9264874458312988,-0.9264874458312988,-0.8853891491889954,-0.8853891491889954,-0.8853891491889954,-0.8853891491889954,-0.8746935725212097,-0.8746935725212097,-0.8746935725212097
70,5.56179141998291,311.0,169.0,0.7300000190734863,-0.026604069396853447,0.16923083364963531,0.29436326026916504,0.3998144268989563,0.7379665970802307,0.13873691856861115,0.018004518002271652,0.034650854766368866,0.033753544092178345,0.04957158491015434,0.054934628307819366,-0.026604069396853447,0.16923083364963531,0.29436326026916504,-0.2003711462020874,0.4759332239627838,-0.7225261926651001,-0.9639909863471985,-0.9639909863471985,-0.9639909863471985,-0.9639909863471985,-0.9306982755661011,-0.9306982755661011,-0.9306982755661011,-0.9306982755661011,-0.9324929118156433,-0.9324929118156433,-0.9324929118156433,-0.9008568525314331,-0.9008568525314331,-0.9008568525314331,-0.9008568525314331,-0.8901307582855225,-0.8901307582855225,-0.8901307582855225
71,5.592693328857422,314.0,169.0,0.7320000529289246,-0.017214396968483925,0.1753847748041153,0.29436326026916504,0.3944762647151947,0.7367957234382629,0.14073383808135986,0.020315684378147125,0.037136998027563095,0.03847793862223625,0.053438976407051086,0.05612490326166153,-0.017214396968483925,0.1753847748041153,0.29436326026916504,-0.21104750037193298,0.4735914468765259,-0.7185323238372803,-0.9593686461448669,-0.9593686461448669,-0.9593686461448669,-0.9593686461448669,-0.9257259964942932,-0.9257259964942932,-0.9257259964942932,-0.9257259964942932,-0.9230441451072693,-0.9230441451072693,-0.9230441451072693,-0.8931220769882202,-0.8931220769882202,-0.8931220769882202,-0.8931220769882202,-0.8877502083778381,-0.8877502083778381,-0.8877502083778381
72,5.624700546264648,317.0,170.0,0.7330000400543213,-0.007824726402759552,0.17846165597438812,0.29018789529800415,0.39348557591438293,0.7357487678527832,0.14047771692276,0.014151221141219139,0.03578849509358406,0.04347340017557144,0.06164517626166344,0.05998201295733452,-0.007824726402759552,0.17846165597438812,0.29018789529800415,-0.21302881836891174,0.4714975357055664,-0.71904456615448,-0.9716975688934326,-0.9716975688934326,-0.9716975688934326,-0.9716975688934326,-0.9284229874610901,-0.9284229874610901,-0.9284229874610901,-0.9284229874610901,-0.9130532145500183,-0.9130532145500183,-0.9130532145500183,-0.8767096400260925,-0.8767096400260925,-0.8767096400260925,-0.8767096400260925,-0.8800359964370728,-0.8800359964370728,-0.8800359964370728
73,5.671711444854736,320.0,170.0,0.737000048160553,0.0015649452107027173,0.19076937437057495,0.29018789529800415,0.3902495801448822,0.7353540062904358,0.1399242877960205,0.020941168069839478,0.03840313106775284,0.03896745666861534,0.04668920859694481,0.05704791843891144,0.0015649452107027173,0.19076937437057495,0.29018789529800415,-0.2195008397102356,0.4707080125808716,-0.720151424407959,-0.958117663860321,-0.958117663860321,-0.958117663860321,-0.958117663860321,-0.9231937527656555,-0.9231937527656555,-0.9231937527656555,-0.9231937527656555,-0.9220650792121887,-0.9220650792121887,-0.9220650792121887,-0.9066215753555298,-0.9066215753555298,-0.9066215753555298,-0.9066215753555298,-0.8859041929244995,-0.8859041929244995,-0.8859041929244995
74,5.7038469314575195,325.0,169.0,0.7380000352859497,0.017214396968483925,0.19384625554084778,0.29436326026916504,0.40838703513145447,0.7358025312423706,0.13132815062999725,0.03521282225847244,0.024803707376122475,0.03251854330301285,0.052119579166173935,0.051529303193092346,0.017214396968483925,0.19384625554084778,0.29436326026916504,-0.18322594463825226,0.4716050922870636,-0.7373436689376831,-0.9295743703842163,-0.9295743703842163,-0.9295743703842163,-0.9295743703842163,-0.9503926038742065,-0.9503926038742065,-0.9503926038742065,-0.9503926038742065,-0.9349629282951355,-0.9349629282951355,-0.9349629282951355,-0.8957608342170715,-0.8957608342170715,-0.8957608342170715,-0.8957608342170715,-0.8969414234161377,-0.8969414234161377,-0.8969414234161377
75,5.735725402832031,328.0,169.0,0.737000048160553,0.026604069396853447,0.19076937437057495,0.29436326026916504,0.40811964869499207,0.7352976202964783,0.1289811134338379,0.025249388068914413,0.029607968404889107,0.03752517327666283,0.052389610558748245,0.05547250062227249,0.026604069396853447,0.19076937437057495,0.29436326026916504,-0.18376071751117706,0.47059527039527893,-0.7420377731323242,-0.9495012164115906,-0.9495012164115906,-0.9495012164115906,-0.9495012164115906,-0.9407840371131897,-0.9407840371131897,-0.9407840371131897,-0.9407840371131897,-0.9249496459960938,-0.9249496459960938,-0.9249496459960938,-0.8952207565307617,-0.8952207565307617,-0.8952207565307617,-0.8952207565307617,-0.8890550136566162,-0.8890550136566162,-0.8890550136566162
76,5.7678728103637695,331.0,168.0,0.7420000433921814,0.03599373996257782,0.2061539739370346,0.2985386252403259,0.4115149974822998,0.7342318296432495,0.1279144287109375,0.028323108330368996,0.036623138934373856,0.03660478815436363,0.04861816391348839,0.050297193229198456,0.03599373996257782,0.2061539739370346,0.2985386252403259,-0.1769700050354004,0.4684637188911438,-0.744171142578125,-0.9433537721633911,-0.9433537721633911,-0.9433537721633911,-0.9433537721633911,-0.9267536997795105,-0.9267536997795105,-0.9267536997795105,-0.9267536997795105,-0.9267904162406921,-0.9267904162406921,-0.9267904162406921,-0.9027636647224426,-0.9027636647224426,-0.9027636647224426,-0.9027636647224426,-0.8994055986404419,-0.8994055986404419,-0.8994055986404419
77,5.813868522644043,334.0,168.0,0.7460000514984131,0.04538341239094734,0.21846169233322144,0.2985386252403259,0.41127756237983704,0.7331947088241577,0.12657299637794495,0.03135167434811592,0.03621397912502289,0.040371377021074295,0.0530182421207428,0.060328319668769836,0.04538341239094734,0.21846169233322144,0.2985386252403259,-0.17744487524032593,0.46638935804367065,-0.7468540072441101,-0.9372966289520264,-0.9372966289520264,-0.9372966289520264,-0.9372966289520264,-0.9275720715522766,-0.9275720715522766,-0.9275720715522766,-0.9275720715522766,-0.9192572236061096,-0.9192572236061096,-0.9192572236061096,-0.8939635157585144,-0.8939635157585144,-0.8939635157585144,-0.8939635157585144,-0.8793433308601379,-0.8793433308601379,-0.8793433308601379
78,5.8457536697387695,337.0,168.0,0.7440000176429749,0.054773081094026566,0.21230775117874146,0.2985386252403259,0.4113214313983917,0.7312654852867126,0.12263471633195877,0.03132117539644241,0.03570689633488655,0.04004336893558502,0.056045349687337875,0.056846946477890015,0.054773081094026566,0.21230775117874146,0.2985386252403259,-0.17735716700553894,0.4625310003757477,-0.7547305822372437,-0.9373576641082764,-0.9373576641082764,-0.9373576641082764,-0.9373576641082764,-0.9285861849784851,-0.9285861849784851,-0.9285861849784851,-0.9285861849784851,-0.9199132919311523,-0.9199132919311523,-0.9199132919311523,-0.8879092931747437,-0.8879092931747437,-0.8879092931747437,-0.8879092931747437,-0.88630610704422,-0.88630610704422,-0.88630610704422
